[
  {
    "name": "Commute: Paris Centre -> La Défense",
    "volume": 1500,
    "origin": {
      "name": "Paris Centre (Châtelet)",
      "lat": 48.8589,
      "lng": 2.3469
    },
    "destination": {
      "name": "La Défense",
      "lat": 48.8919,
      "lng": 2.2384
    }
  },
  {
    "name": "Arrivée: Aéroport CDG -> Paris Centre",
    "volume": 1200,
    "origin": {
      "name": "Aéroport CDG",
      "lat": 49.0097,
      "lng": 2.5479
    },
    "destination": {
      "name": "Paris Centre (Opéra)",
      "lat": 48.8705,
      "lng": 2.3323
    }
  },
  {
    "name": "Arrivée: Aéroport Orly -> Paris Centre",
    "volume": 950,
    "origin": {
      "name": "Aéroport Orly",
      "lat": 48.7262,
      "lng": 2.3652
    },
    "destination": {
      "name": "Paris Centre (Denfert)",
      "lat": 48.8343,
      "lng": 2.3324
    }
  },
  {
    "name": "Tourisme: Paris -> Versailles",
    "volume": 700,
    "origin": {
      "name": "Paris (Tour Eiffel)",
      "lat": 48.8584,
      "lng": 2.2945
    },
    "destination": {
      "name": "Château de Versailles",
      "lat": 48.8049,
      "lng": 2.1204
    }
  },
  {
    "name": "Tourisme: Paris -> Disneyland",
    "volume": 800,
    "origin": {
      "name": "Paris (Gare de Lyon)",
      "lat": 48.8443,
      "lng": 2.3744
    },
    "destination": {
      "name": "Disneyland Paris (MLV)",
      "lat": 48.8709,
      "lng": 2.7760
    }
  },
  {
    "name": "Banlieue-Banlieue: Créteil -> Saint-Denis",
    "volume": 450,
    "origin": {
      "name": "Créteil (94)",
      "lat": 48.7924,
      "lng": 2.4570
    },
    "destination": {
      "name": "Saint-Denis (93)",
      "lat": 48.9357,
      "lng": 2.3580
    }
  },
  {
    "name": "Commute: Évry -> Paris",
    "volume": 600,
    "origin": {
      "name": "Évry (91)",
      "lat": 48.6239,
      "lng": 2.4281
    },
    "destination": {
      "name": "Paris Centre (Châtelet)",
      "lat": 48.8589,
      "lng": 2.3469
    }
  },
  {
    "name": "Commute: Cergy -> La Défense",
    "volume": 550,
    "origin": {
      "name": "Cergy (95)",
      "lat": 49.0359,
      "lng": 2.0797
    },
    "destination": {
      "name": "La Défense",
      "lat": 48.8919,
      "lng": 2.2384
    }
  },
  {
    "name": "Commute longue: Melun -> Paris",
    "volume": 300,
    "origin": {
      "name": "Melun (77)",
      "lat": 48.5398,
      "lng": 2.6599
    },
    "destination": {
      "name": "Paris (Gare de Lyon)",
      "lat": 48.8443,
      "lng": 2.3744
    }
  },
  {
    "name": "Transfert: La Défense -> Aéroport Orly",
    "volume": 400,
    "origin": {
      "name": "La Défense",
      "lat": 48.8919,
      "lng": 2.2384
    },
    "destination": {
      "name": "Aéroport Orly",
      "lat": 48.7262,
      "lng": 2.3652
    }
  },
  {
    "name": "Transfert: Disneyland -> Aéroport CDG",
    "volume": 350,
    "origin": {
      "name": "Disneyland Paris (MLV)",
      "lat": 48.8709,
      "lng": 2.7760
    },
    "destination": {
      "name": "Aéroport CDG",
      "lat": 49.0097,
      "lng": 2.5479
    }
  }
]